,City,Temperature,Humidity,Longitude,Latitude,Cloudiness,Country,Windspeed,Date
0,lugovoy,44.4,55,72.76,42.95,29,KZ,5.61,1603667993
1,yulara,66.2,30,130.99,-25.24,28,AU,20.8,1603668257
2,kapaa,82.99,74,-159.32,22.08,40,US,9.17,1603668207
3,villa carlos paz,64.99,62,-64.5,-31.42,65,AR,15.26,1603668259
4,klaksvik,42.8,87,-6.59,62.23,26,FO,6.93,1603668260
5,sechura,70.11,67,-80.82,-5.56,70,PE,16.11,1603668260
6,gebze,64.4,88,29.43,40.8,0,TR,3.36,1603668260
7,busselton,66.99,54,115.33,-33.65,0,AU,5.48,1603668261
8,port augusta,55.4,43,137.77,-32.5,90,AU,9.17,1603668261
9,yarmouth,48.0,75,-70.23,41.71,1,US,5.82,1603668262
10,maningrida,85.19,62,134.27,-12.07,72,AU,5.77,1603668262
11,katsuura,62.01,62,140.3,35.13,75,JP,6.93,1603668263
12,atuona,78.94,75,-139.03,-9.8,3,PF,20.56,1603668263
13,victoria,73.99,79,114.16,22.29,100,HK,15.82,1603668056
14,shamary,30.24,97,58.22,57.34,100,RU,3.44,1603668264
15,anadyr,23.0,92,177.48,64.75,90,RU,4.47,1603667992
16,taree,69.8,73,152.47,-31.9,75,AU,9.17,1603668264
17,lagoa,63.95,62,-27.98,39.05,63,PT,1.66,1603668174
18,baglan,41.22,67,68.71,36.13,0,AF,0.67,1603668265
19,pevek,25.65,98,170.31,69.7,100,RU,7.72,1603668050
20,wanaka,54.0,77,169.15,-44.7,100,NZ,5.01,1603668083
21,khabary,37.8,89,79.53,53.63,100,RU,16.33,1603668267
22,bluff,53.01,58,168.33,-46.6,71,NZ,5.99,1603668161
23,luwuk,81.0,68,122.79,-0.95,100,ID,3.76,1603668267
24,east london,66.38,70,27.91,-33.02,96,ZA,2.3,1603668268
25,punta arenas,46.4,75,-70.92,-53.15,75,CL,3.36,1603667998
26,hobart,57.99,54,147.33,-42.88,75,AU,11.41,1603668188
27,auki,86.23,65,160.7,-8.77,91,SB,2.37,1603667987
28,lipari,63.0,81,14.95,38.47,18,IT,3.0,1603668269
29,codrington,54.07,67,141.97,-38.27,1,AU,18.28,1603668270
30,mataura,53.01,60,168.86,-46.19,94,NZ,7.0,1603667992
31,albany,44.01,55,-73.97,42.6,0,US,4.45,1603668271
32,vaini,75.2,88,-175.2,-21.2,75,TO,12.75,1603667992
33,whitehorse,28.4,74,-135.05,60.72,90,CA,11.41,1603668185
34,port alfred,64.13,83,26.89,-33.59,94,ZA,1.61,1603667996
35,butaritari,81.27,71,172.79,3.07,57,KI,9.33,1603668158
36,yekaterinovka,38.75,89,44.35,52.05,2,RU,7.7,1603668273
37,ushuaia,53.6,46,-68.3,-54.8,20,AR,6.93,1603667993
38,chimbote,63.66,83,-78.58,-9.09,53,PE,9.08,1603668165
39,isangel,80.6,65,169.27,-19.55,75,VU,6.93,1603668176
40,mariestad,50.0,93,13.82,58.71,100,SE,4.7,1603668275
41,lompoc,64.4,68,-120.46,34.64,90,US,13.87,1603668275
42,rocha,67.82,89,-54.33,-34.48,100,UY,8.34,1603668275
43,cape town,63.0,84,18.42,-33.93,4,ZA,4.0,1603668117
44,pittsburg,72.0,21,-121.88,38.03,1,US,10.29,1603668195
45,sao filipe,82.8,62,-24.5,14.9,96,CV,15.14,1603668277
46,yellowknife,28.4,79,-114.35,62.46,75,CA,2.24,1603668277
47,ialibu,67.1,65,143.99,-6.28,99,PG,2.13,1603668277
48,svetlogorsk,44.55,94,29.73,52.63,68,BY,5.86,1603668278
49,tuktoyaktuk,19.4,92,-133.04,69.45,90,CA,18.34,1603668278
50,prainha,86.92,46,-53.48,-1.8,81,BR,4.94,1603668279
51,ancud,51.01,76,-73.82,-41.87,75,CL,13.87,1603668279
52,lorengau,84.4,73,147.27,-2.02,100,PG,5.23,1603668279
53,mpulungu,77.7,51,31.11,-8.76,11,ZM,4.59,1603668280
54,tasiilaq,32.0,97,-37.64,65.61,99,GL,12.75,1603668039
55,labuhan,79.38,83,112.21,-6.88,97,ID,8.66,1603668281
56,namibe,68.58,78,12.15,-15.2,46,AO,2.39,1603668042
57,salalah,75.2,60,54.09,17.02,0,OM,5.82,1603668282
58,nea kallikratia,60.01,87,23.07,40.32,20,GR,1.12,1603668282
59,hermanus,60.01,90,19.23,-34.42,88,ZA,1.99,1603667986
60,kahului,93.2,46,-156.47,20.89,40,US,14.99,1603668276
61,arraial do cabo,71.6,83,-42.03,-22.97,75,BR,10.49,1603668055
62,ouallam,84.72,13,2.09,14.32,1,NE,8.66,1603668284
63,chokurdakh,5.65,92,147.92,70.63,3,RU,9.86,1603668018
64,tiksi,4.55,90,128.87,71.69,100,RU,29.75,1603668285
65,pisco,66.99,72,-76.22,-13.7,0,PE,17.22,1603668286
66,acurenam,68.77,98,10.65,1.03,100,GQ,4.68,1603668286
67,tuatapere,53.01,58,167.68,-46.13,92,NZ,5.99,1603668027
68,thinadhoo,82.85,71,72.93,0.53,6,MV,7.94,1603668287
69,castro,63.21,91,-50.01,-24.79,0,BR,5.41,1603668056
70,znamenskoye,33.91,98,73.83,57.13,99,RU,4.97,1603668288
71,haines junction,29.84,90,-137.51,60.75,100,CA,3.11,1603668026
72,qaanaaq,11.17,79,-69.36,77.48,100,GL,10.07,1603668289
73,san rafael,66.47,30,-68.33,-34.62,0,AR,10.0,1603668289
74,hilo,87.8,55,-155.09,19.73,40,US,11.41,1603668289
75,dikson,19.15,98,80.55,73.51,100,RU,12.57,1603668290
76,corrente,79.66,73,-43.34,-3.74,99,BR,5.5,1603668290
77,san esteban,75.02,89,-85.75,15.2,100,HN,2.15,1603668291
78,port elizabeth,62.6,93,25.57,-33.92,75,ZA,9.17,1603668291
79,puerto ayora,68.0,85,-90.35,-0.74,70,EC,8.01,1603668291
80,marzuq,62.1,31,46.47,14.4,0,YE,0.74,1603668026
81,longyearbyen,30.2,74,15.64,78.22,75,SJ,10.29,1603668292
82,horsham,48.99,87,-0.33,51.06,20,GB,4.7,1603668261
83,san patricio,82.4,88,-97.52,28.02,1,US,17.22,1603668293
84,bredasdorp,60.8,93,20.04,-34.53,100,ZA,9.17,1603668003
85,thompson,24.8,62,-97.86,55.74,75,CA,6.93,1603668294
86,abu samrah,64.71,27,37.18,35.3,2,SY,4.94,1603668294
87,brae,50.0,81,-1.35,60.4,75,GB,18.34,1603668295
88,leningradskiy,24.51,90,178.42,69.38,68,RU,5.41,1603668016
89,jamestown,45.0,70,-79.24,42.1,90,US,9.17,1603668295
90,rikitea,74.71,80,-134.97,-23.12,100,PF,23.55,1603668151
91,darhan,23.5,89,105.92,49.49,88,MN,2.04,1603668296
92,norman wells,28.4,100,-126.83,65.28,75,CA,10.29,1603668297
93,kavieng,82.96,75,150.8,-2.57,100,PG,8.93,1603668297
94,kaitangata,52.0,66,169.85,-46.28,99,NZ,4.0,1603668297
95,ponta do sol,66.2,68,-17.1,32.67,20,PT,5.82,1603668298
96,sola,80.6,88,167.55,-13.88,90,VU,18.25,1603668103
97,port blair,77.76,85,92.75,11.67,76,IN,5.17,1603668299
98,talnakh,10.4,85,88.4,69.49,75,RU,13.42,1603668299
99,varna,60.8,93,27.92,43.22,75,BG,5.82,1603668240
100,saint-philippe,68.0,72,55.77,-21.36,0,RE,8.05,1603668300
101,barnstaple,48.99,87,-4.06,51.08,24,GB,13.0,1603668300
102,torbay,41.0,80,-52.73,47.67,75,CA,20.8,1603668301
103,bengkulu,74.93,87,102.27,-3.8,100,ID,4.99,1603668301
104,mar del plata,61.0,100,-57.56,-38.0,90,AR,3.62,1603668302
105,rupert,35.6,24,-113.68,42.62,20,US,8.05,1603668303
106,plettenberg bay,62.17,90,23.37,-34.05,100,ZA,14.0,1603668303
107,warrington,46.4,87,-2.58,53.39,0,GB,8.05,1603668304
108,avarua,78.8,69,-159.78,-21.21,76,CK,12.75,1603668158
109,san jose,71.6,43,-121.89,37.34,40,US,10.29,1603668305
110,maine-soroa,80.91,20,12.02,13.21,10,NE,8.25,1603668306
111,port-gentil,78.8,83,8.78,-0.72,75,GA,11.41,1603668307
112,dvinskoy,24.76,98,45.12,62.15,85,RU,4.34,1603668307
113,turkistan,42.12,57,68.0,43.0,57,KZ,5.5,1603668307
114,la asuncion,81.59,81,-63.86,11.03,0,VE,17.76,1603668308
115,grafton,45.0,78,-71.69,42.21,98,US,1.99,1603668219
116,qasigiannguit,12.2,61,-51.19,68.82,81,GL,3.36,1603668309
117,port lincoln,54.46,61,135.87,-34.73,47,AU,17.69,1603668309
118,huarmey,65.08,79,-78.15,-10.07,39,PE,8.7,1603668310
119,juegang,62.01,1,121.19,32.32,48,CN,4.54,1603668310
120,sorland,41.0,86,12.69,67.67,75,NO,10.29,1603668311
121,amga,8.22,92,131.96,60.9,7,RU,2.66,1603668166
122,tselinnoye,33.33,94,85.67,53.08,100,RU,20.33,1603668311
123,naze,73.4,64,129.48,28.37,75,JP,4.7,1603668312
124,bambous virieux,73.0,88,57.76,-20.34,75,MU,18.34,1603668312
125,bayan,36.61,82,127.4,46.08,3,CN,1.79,1603668313
126,monrovia,79.0,84,-10.8,6.3,1,LR,6.76,1603668313
127,saint-augustin,32.29,86,-58.65,51.23,2,CA,12.37,1603668314
128,umm kaddadah,80.02,22,26.69,13.6,0,SD,12.8,1603668314
129,chihuahua,87.8,10,-106.0,28.5,5,MX,12.75,1603668314
130,new norfolk,57.99,50,147.06,-42.78,2,AU,1.01,1603668161
131,calvia,68.0,77,2.51,39.57,36,ES,12.75,1603668315
132,coquimbo,55.4,82,-71.34,-29.95,20,CL,10.29,1603668316
133,naryan-mar,15.21,96,53.09,67.67,8,RU,9.69,1603668021
134,narsaq,42.8,41,-46.05,60.92,100,GL,28.86,1603668317
135,funadhoo,80.53,78,73.27,6.15,99,MV,6.2,1603668317
136,giaveno,54.0,93,7.35,45.05,90,IT,1.25,1603668318
137,hofn,44.1,73,-15.21,64.25,100,IS,13.29,1603668318
138,rapar,78.64,55,70.63,23.57,0,IN,4.65,1603668142
139,mount gambier,55.4,58,140.77,-37.83,2,AU,23.04,1603668319
140,watertown,48.0,65,-71.18,42.37,90,US,9.17,1603668031
141,umm lajj,78.8,46,37.27,25.02,0,SA,1.3,1603668320
142,polyarnyy,21.2,92,33.45,69.2,0,RU,4.47,1603668320
143,pandan,80.37,84,124.17,14.05,100,PH,20.4,1603668321
144,tulu bolo,52.25,50,38.22,8.67,0,ET,4.32,1603668321
145,krasnoselkup,3.52,93,82.47,65.7,0,RU,9.95,1603668322
146,payo,71.89,96,103.64,-3.75,100,ID,2.1,1603668322
147,bonavista,39.99,79,-53.11,48.65,34,CA,15.99,1603668323
148,dakoro,82.72,15,6.76,14.51,48,NE,9.6,1603668323
149,kankan,73.36,48,-9.31,10.39,0,GN,1.19,1603668324
150,luderitz,65.28,54,15.16,-26.65,75,NA,22.7,1603668324
151,kodiak,48.2,87,-152.41,57.79,90,US,10.29,1603668139
152,sao gabriel da cachoeira,76.55,94,-67.09,-0.13,100,BR,2.17,1603668325
153,turan,73.4,94,108.22,16.07,75,VN,2.24,1603668326
154,geraldton,64.4,93,114.6,-28.77,0,AU,14.07,1603668326
155,leh,26.6,82,77.58,34.17,92,IN,2.57,1603668029
156,kanchanaburi,73.02,86,99.1,14.63,95,TH,3.04,1603668327
157,aasiaat,10.65,88,-52.87,68.71,83,GL,7.96,1603668162
158,nha trang,77.0,94,109.18,12.25,40,VN,3.36,1603668189
159,pitimbu,77.0,88,-34.81,-7.47,0,BR,4.7,1603668328
160,cherskiy,15.31,96,161.3,68.75,100,RU,0.36,1603668329
161,lebu,51.31,69,-73.65,-37.62,0,CL,6.78,1603668330
162,okhotsk,31.69,87,143.3,59.38,54,RU,24.14,1603668330
163,pocao de pedras,79.2,81,-44.85,-4.67,84,BR,2.48,1603668331
164,khatanga,6.28,95,102.5,71.97,94,RU,9.51,1603668331
165,agadez,70.12,23,10.25,19.75,0,NE,10.09,1603668331
166,elat,77.0,83,34.95,29.56,0,IL,11.41,1603668161
167,bubaque,83.57,81,-15.83,11.28,9,GW,12.39,1603668333
168,upernavik,13.8,76,-56.15,72.79,64,GL,4.9,1603668333
169,sagaing,78.8,94,95.98,21.88,75,MM,2.24,1603668334
170,vallenar,65.05,28,-70.76,-28.57,0,CL,3.09,1603668334
171,cabo san lucas,88.0,58,-109.91,22.89,40,MX,11.41,1603668334
172,carnarvon,71.6,83,113.63,-24.87,75,AU,18.34,1603668335
173,olinda,80.6,74,-34.86,-8.01,20,BR,4.7,1603668041
174,viedma,55.99,43,-63.0,-40.81,0,AR,1.99,1603668114
175,college,34.0,79,-147.8,64.86,75,US,3.49,1603668056
176,mukhtolovo,40.03,88,43.2,55.46,61,RU,6.42,1603668337
177,ilulissat,12.2,61,-51.1,69.22,74,GL,3.36,1603668085
178,mahenge,65.44,87,36.72,-8.68,64,TZ,4.76,1603668338
179,eureka,69.01,54,-124.16,40.8,0,US,3.0,1603668203
180,manuk mangkaw,82.54,78,119.85,4.8,99,PH,15.73,1603668339
181,vestmanna,42.8,87,-7.17,62.16,10,FO,6.93,1603668091
182,bloemhof,77.27,30,25.61,-27.65,99,ZA,13.6,1603668339
183,ahipara,68.9,64,173.17,-35.17,3,NZ,6.2,1603668341
184,obo,69.91,96,26.49,5.4,100,CF,3.04,1603668341
185,iquique,64.4,72,-70.14,-20.22,90,CL,16.11,1603668119
186,faanui,80.74,68,-151.75,-16.48,34,PF,7.14,1603668342
187,cao bang,66.54,83,106.25,22.67,88,VN,1.19,1603668343
188,vanimo,80.64,82,141.3,-2.67,100,PG,2.3,1603668343
189,mount pleasant,73.99,94,-79.86,32.79,20,US,4.7,1603668344
190,vostok,32.9,95,135.88,46.49,75,RU,1.52,1603668046
191,progreso,84.2,70,-89.67,21.28,75,MX,11.41,1603668124
192,kawhia,72.0,66,174.82,-38.07,24,NZ,4.0,1603668345
193,deolali,69.39,68,73.83,19.95,0,IN,3.09,1603668345
194,yar-sale,11.43,96,70.83,66.83,69,RU,10.16,1603668346
195,dubinino,27.68,96,89.09,55.62,100,RU,9.17,1603668347
196,hithadhoo,83.39,68,73.08,-0.6,55,MV,6.31,1603668068
197,alofi,77.0,83,-169.92,-19.06,90,NU,11.41,1603668348
198,nikolskoye,43.0,93,30.79,59.7,90,RU,6.71,1603668194
199,wolomin,54.0,90,21.24,52.34,65,PL,8.05,1603668349
200,yaring,77.11,88,101.37,6.87,100,TH,5.75,1603668350
201,bull savanna,77.41,88,-77.59,17.89,100,JM,13.4,1603668350
202,houston,75.2,88,-95.36,29.76,90,US,14.99,1603668187
203,hambantota,78.24,80,81.12,6.12,97,LK,10.42,1603668266
204,kem,30.11,96,34.58,64.96,98,RU,3.47,1603668351
205,gainesville,80.6,69,-82.32,29.65,20,US,3.36,1603668055
206,hami,38.05,67,93.45,42.8,23,CN,3.15,1603668352
207,severo-kurilsk,44.96,84,156.12,50.68,91,RU,5.93,1603668068
208,swan river,22.19,90,-101.27,52.11,82,CA,10.13,1603668353
209,nueve de julio,64.0,93,-60.88,-35.44,100,AR,1.01,1603668350
210,georgetown,78.8,88,100.34,5.41,40,MY,5.68,1603668154
211,komsomolskiy,46.4,49,71.72,40.43,0,UZ,6.93,1603668354
212,korhogo,75.88,53,-5.63,9.45,33,CI,2.77,1603668355
213,evensk,33.78,88,159.23,61.95,100,RU,14.12,1603668355
214,ewa beach,84.2,70,-158.01,21.32,1,US,8.05,1603668160
215,cayenne,82.4,78,-52.33,4.93,0,GF,3.36,1603668356
216,lasa,54.0,93,10.7,46.62,90,IT,5.82,1603668357
217,kamaishi,48.2,100,141.88,39.27,75,JP,1.12,1603668357
218,dunedin,46.0,90,170.5,-45.87,100,NZ,3.0,1603668358
219,te anau,49.21,69,167.72,-45.42,99,NZ,4.03,1603668358
220,san luis,56.32,55,-66.34,-33.3,6,AR,12.37,1603668358
221,kazlu ruda,50.0,81,23.5,54.77,98,LT,9.17,1603668359
222,nouadhibou,77.0,57,-17.03,20.93,0,MR,24.16,1603668359
223,yalova,64.4,88,29.28,40.66,0,TR,3.36,1603668360
224,ha giang,69.53,75,104.98,22.83,89,VN,1.63,1603668136
225,portoferraio,59.0,87,10.31,42.81,5,IT,12.73,1603668360
226,gold coast,75.0,73,153.43,-28.0,90,AU,9.17,1603668361
227,meridian,45.0,17,-116.39,43.61,1,US,12.75,1603668362
228,san cristobal,80.6,78,-72.22,7.77,40,VE,5.82,1603668218
229,tahoua,82.38,14,5.27,14.89,0,NE,8.77,1603668363
230,axim,77.76,90,-2.24,4.87,100,GH,7.27,1603668363
231,mahebourg,71.6,88,57.7,-20.41,75,MU,18.34,1603668364
232,port macquarie,66.2,77,152.92,-31.43,40,AU,11.41,1603668154
233,iqaluit,14.0,85,-68.51,63.75,75,CA,3.36,1603668365
234,aktash,17.37,83,87.73,50.3,100,RU,4.54,1603668365
235,kavaratti,81.39,75,72.64,10.57,88,IN,4.52,1603668366
236,padong,80.6,83,120.76,18.05,75,PH,9.17,1603668366
237,menongue,67.64,27,17.69,-14.66,0,AO,3.11,1603668366
238,cockburn town,84.2,74,-71.14,21.46,75,TC,12.75,1603668166
239,victor harbor,57.0,69,138.62,-35.57,55,AU,1.01,1603668367
240,hamilton,53.6,66,-84.53,39.18,90,US,4.7,1603668148
241,gravdal,41.0,86,13.5,68.12,75,NO,10.29,1603668368
242,goure,81.0,19,10.27,13.98,1,NE,7.0,1603668368
243,saint anthony,28.4,68,-93.22,45.02,75,US,8.05,1603668369
244,kumano,57.2,62,132.59,34.34,20,JP,5.82,1603668369
245,shubarkuduk,55.42,76,56.49,49.14,100,KZ,19.28,1603668370
246,araguaina,78.67,75,-48.21,-7.19,87,BR,4.36,1603668370
247,airai,67.77,84,125.41,-8.93,98,TL,1.57,1603668371
248,saskylakh,7.61,93,114.08,71.92,100,RU,10.33,1603668372
249,khoy,59.13,35,44.95,38.55,100,IR,1.28,1603668372
250,ponta delgada,59.0,82,-25.67,37.73,20,PT,6.93,1603668373
251,husavik,41.0,80,-17.34,66.04,90,IS,5.82,1603668373
252,santiago del estero,78.51,71,-64.26,-27.8,52,AR,21.0,1603668374
253,graaff-reinet,59.0,78,24.53,-32.25,100,ZA,1.01,1603668374
254,diamantino,79.5,67,-56.45,-14.41,21,BR,4.36,1603668125
255,la seyne-sur-mer,64.99,90,5.88,43.1,53,FR,1.99,1603668375
256,road town,84.2,74,-64.62,18.42,40,VG,10.29,1603668376
257,chichibu,61.0,71,139.08,35.99,1,JP,1.72,1603668376
258,erdaojiang,38.91,74,126.03,41.78,1,CN,1.77,1603668376
259,riyadh,62.6,45,46.72,24.69,0,SA,5.35,1603668377
260,san quintin,68.32,67,-115.95,30.48,66,MX,14.27,1603668377
261,kontagora,74.8,50,5.47,10.4,39,NG,0.07,1603668378
262,barrow,26.6,68,-156.79,71.29,90,US,8.05,1603668378
263,areosa,53.6,87,-8.86,41.72,75,PT,4.7,1603668378
264,troitsko-pechorsk,22.06,98,56.2,62.71,100,RU,1.3,1603668379
265,ahar,55.81,46,47.07,38.48,100,IR,2.42,1603668380
266,boshnyakovo,38.89,87,142.17,49.63,100,RU,19.57,1603668380
267,margate,51.01,81,1.39,51.38,86,GB,4.0,1603668380
268,shaunavon,9.36,92,-108.42,49.65,2,CA,11.07,1603668381
269,caravelas,72.61,97,-39.25,-17.71,100,BR,8.48,1603668381
270,souillac,71.6,88,57.52,-20.52,75,MU,18.34,1603668217
271,ulaangom,24.53,82,92.07,49.98,99,MN,6.15,1603668382
272,saldanha,57.2,82,17.94,-33.01,19,ZA,6.93,1603668382
273,praia,80.6,69,-23.51,14.92,0,CV,16.11,1603668383
274,havoysund,33.8,74,24.66,71.0,75,NO,43.62,1603668126
275,najran,60.8,21,44.13,17.49,0,SA,2.3,1603668266
276,lata,55.0,90,-8.33,40.16,69,PT,1.99,1603668384
277,vila franca do campo,59.0,82,-25.43,37.72,20,PT,6.93,1603668384
278,dakar,82.4,88,-17.44,14.69,53,SN,7.31,1603668222
279,smithers,26.6,63,-127.17,54.78,90,CA,1.28,1603668385
280,damietta,77.0,78,31.81,31.42,0,EG,8.05,1603668386
281,nabire,80.13,79,135.48,-3.37,97,ID,2.37,1603668386
282,ivangorod,44.64,92,28.22,59.37,84,RU,8.7,1603668386
283,xining,36.88,66,101.77,36.62,99,CN,1.5,1603668387
284,lages,63.27,89,-50.33,-27.82,8,BR,7.7,1603668264
285,khovu-aksy,20.3,80,93.6,51.13,100,RU,3.06,1603668388
286,deputatskiy,3.34,89,139.9,69.3,1,RU,5.57,1603668388
287,chardara,50.86,49,67.97,41.25,42,KZ,4.74,1603668389
288,praia da vitoria,63.0,82,-27.07,38.73,75,PT,2.84,1603668247
289,baykit,14.14,93,96.37,61.67,81,RU,2.1,1603668390
290,sistranda,46.4,81,8.83,63.73,20,NO,13.87,1603668126
291,amahai,80.92,75,128.92,-3.33,82,ID,1.54,1603668391
292,chenzhou,62.4,73,113.03,25.8,65,CN,1.79,1603668391
293,ribeira grande,64.92,70,-28.7,38.52,72,PT,3.53,1603668392
294,lavrentiya,33.75,88,-171.0,65.58,96,RU,8.14,1603668260
295,balkhash,42.66,65,74.98,46.84,31,KZ,7.49,1603668392
296,ossora,39.25,80,163.07,59.24,100,RU,11.32,1603668393
297,houma,75.0,69,-90.72,29.6,1,US,6.93,1603668160
298,siloam springs,48.2,81,-94.54,36.19,90,US,5.82,1603668394
299,udachnyy,-0.4,84,112.4,66.42,0,RU,2.24,1603668138
300,sinnamary,81.01,81,-52.95,5.38,49,GF,10.2,1603668394
301,neiafu,78.8,78,-173.98,-18.65,75,TO,9.17,1603668395
302,kalavai,74.5,85,79.42,12.77,89,IN,3.8,1603668173
303,narkanda,37.47,77,77.46,31.25,0,IN,4.0,1603668396
304,fuzesgyarmat,55.4,100,21.22,47.1,93,HU,6.93,1603668396
305,kirkland lake,33.8,80,-80.04,48.14,90,CA,5.82,1603668396
306,gushikawa,71.6,73,127.87,26.35,40,JP,9.17,1603668397
307,nanortalik,35.35,87,-45.24,60.14,99,GL,15.08,1603668397
308,tezu,70.59,69,96.17,27.92,4,IN,2.64,1603668398
309,westonaria,66.2,68,27.65,-26.32,68,ZA,9.17,1603668398
310,mvuma,63.81,42,30.53,-19.28,0,ZW,7.07,1603668399
311,chuy,66.87,89,-53.46,-33.7,100,UY,14.9,1603668399
312,sorong,80.47,80,131.25,-0.88,62,ID,5.75,1603668272
313,petropavlovsk-kamchatskiy,41.0,100,158.65,53.05,90,RU,4.47,1603668400
314,necochea,55.99,91,-58.74,-38.55,100,AR,8.99,1603668400
315,ambilobe,69.89,73,49.05,-13.2,0,MG,5.48,1603668401
316,altagracia de orituco,73.53,91,-66.38,9.86,69,VE,3.83,1603668401
317,kaeo,71.01,71,173.78,-35.1,20,NZ,8.01,1603668402
318,sivaki,29.95,96,126.75,52.63,52,RU,3.44,1603668402
319,los llanos de aridane,69.8,64,-17.92,28.66,62,ES,10.29,1603668403
320,hasaki,53.6,76,140.83,35.73,75,JP,3.36,1603668197
321,igrim,24.06,98,64.42,63.19,91,RU,5.08,1603668404
322,santa isabel do rio negro,74.79,96,-65.02,-0.41,100,BR,2.73,1603668404
323,anahuac,89.6,52,-100.15,27.23,5,MX,9.17,1603668404
324,arroyo,45.0,93,-4.8,41.61,0,ES,10.29,1603668405
325,lazaro cardenas,84.38,79,-102.2,17.96,33,MX,9.22,1603668405
326,sosnovo-ozerskoye,25.43,89,111.54,52.52,99,RU,18.54,1603668406
327,tottori,55.4,76,134.23,35.5,40,JP,10.29,1603668406
328,chicama,66.43,75,-79.15,-7.84,60,PE,7.27,1603668406
329,bhabua,68.88,43,83.62,25.05,0,IN,2.57,1603668407
330,clyde,48.99,69,-82.98,41.3,100,US,6.04,1603668407
331,bletchley,45.0,95,-0.73,51.99,26,GB,1.01,1603668148
332,mamou,68.0,70,-12.0,10.5,13,GN,2.51,1603668408
333,kukmor,31.39,97,50.89,56.19,23,RU,11.14,1603668408
334,fortuna,62.01,58,-124.16,40.6,1,US,11.41,1603668409
335,fereydun kenar,68.56,49,52.52,36.69,2,IR,1.57,1603668409
336,xinzhou,50.99,61,112.73,38.41,7,CN,0.29,1603668410
337,venezuela,81.57,78,-66.0,8.0,85,VE,5.46,1603668410
338,dunmore town,81.36,77,-76.65,25.5,100,BS,10.58,1603668411
339,grand baie,73.0,79,57.58,-20.02,60,MU,5.99,1603668411
340,esperance,59.0,58,121.9,-33.87,0,AU,21.92,1603668411
341,el dorado,60.01,58,-120.52,38.77,1,US,6.93,1603668412
342,fairbanks,33.01,79,-147.72,64.84,1,US,3.44,1603668303
343,beloha,66.96,78,45.05,-25.17,99,MG,4.43,1603668413
344,tocopilla,65.3,60,-70.2,-22.09,99,CL,10.25,1603668413
345,ordynskoye,37.09,90,81.9,54.37,100,RU,15.08,1603668414
346,bosaso,74.35,58,49.18,11.28,38,SO,2.51,1603668414
347,qaqortoq,42.8,41,-46.03,60.72,100,GL,28.86,1603668126
348,straumen,46.0,100,11.3,63.87,0,NO,9.17,1603668415
349,luba,78.76,80,8.55,3.46,99,GQ,1.68,1603668415
350,tigzirt,65.17,46,4.12,36.89,0,DZ,4.25,1603668416
351,bundaberg,82.99,61,152.35,-24.85,75,AU,11.41,1603668332
352,ikwiriri,73.42,90,38.97,-7.96,9,TZ,2.37,1603668416
353,jumla,42.28,54,82.18,29.27,0,NP,6.98,1603668417
354,padang,78.71,70,100.35,-0.95,100,ID,2.3,1603668417
355,goderich,43.0,66,-81.72,43.75,93,CA,13.44,1603668132
356,paso del toro,84.2,70,-96.12,19.03,40,MX,3.36,1603668418
357,lubango,66.25,61,13.49,-14.92,33,AO,2.71,1603668418
358,canchungo,82.4,88,-16.03,12.07,20,GW,2.24,1603668419
359,saint george,60.01,37,-113.58,37.1,73,US,25.28,1603668288
360,aklavik,23.0,79,-135.01,68.22,90,CA,16.11,1603668155
361,beyneu,56.34,88,55.2,45.32,73,KZ,13.69,1603668253
362,la ronge,24.8,53,-105.28,55.1,40,CA,6.93,1603668421
363,izumo,51.8,93,132.77,35.37,20,JP,5.82,1603668421
364,tautira,84.2,70,-149.15,-17.73,40,PF,6.93,1603668421
365,vetlanda,52.0,100,15.08,57.43,100,SE,3.36,1603668422
366,carutapera,79.84,78,-46.02,-1.2,100,BR,7.14,1603668422
367,henties bay,57.99,90,14.28,-22.12,0,NA,3.0,1603668423
368,puerto palomas,80.6,14,-107.62,31.77,1,MX,21.92,1603668423
369,manzanillo,77.97,87,-77.12,20.34,100,CU,5.64,1603668424
370,midland,69.8,45,-102.08,32.0,84,US,23.04,1603668422
371,mumford,78.04,90,-0.76,5.26,42,GH,8.97,1603668424
372,tabora,72.91,59,32.8,-5.02,99,TZ,4.43,1603668425
373,gander,37.4,64,-54.59,48.97,75,CA,12.75,1603668425
374,bathsheba,82.4,74,-59.52,13.22,40,BB,12.75,1603668426
375,santa marinella,55.99,97,11.85,42.03,11,IT,9.91,1603668426
376,yarim,48.79,39,44.38,14.3,5,YE,4.32,1603668426
377,maamba,73.74,33,27.15,-17.37,0,ZM,0.31,1603668427
378,kano,62.6,93,8.52,12.0,68,NG,2.24,1603668427
379,coahuayana,80.6,83,-103.68,18.73,40,MX,13.87,1603668428
380,porto novo,78.8,94,2.6,6.5,40,BJ,2.24,1603668428
381,cidreira,69.13,88,-50.21,-30.18,14,BR,25.75,1603668189
382,kikwit,72.21,95,18.82,-5.04,97,CD,2.21,1603668429
383,vega de alatorre,81.3,72,-96.63,20.03,28,MX,6.91,1603668429
384,vestmannaeyjar,44.19,74,-20.27,63.44,0,IS,1.92,1603668430
385,catalina foothills,84.0,19,-110.92,32.3,75,US,14.99,1603668430
386,griffith,46.99,61,-87.42,41.53,90,US,10.29,1603668431
387,kasongo,68.83,99,26.67,-4.45,100,CD,4.92,1603668431
388,martapura,77.0,94,114.85,-3.42,99,ID,8.05,1603668431
389,kloulklubed,84.2,79,134.26,7.04,75,PW,3.36,1603668432
390,ilam,59.88,94,87.92,26.92,32,NP,3.0,1603668432
391,azle,61.0,100,-97.55,32.9,90,US,9.17,1603668433
392,lloydminster,24.8,41,-110.0,53.28,40,CA,12.75,1603668174
393,lahij,74.07,45,44.58,13.17,14,YE,3.11,1603668434
394,zhigansk,-2.97,89,123.37,66.77,2,RU,5.32,1603668230
395,xingcheng,50.9,59,120.72,40.62,69,CN,4.79,1603668434
396,constitucion,53.33,69,-72.42,-35.33,0,CL,14.9,1603668435
397,kurchum,36.14,71,83.65,48.57,93,KZ,9.69,1603668278
398,khash,44.15,50,61.22,28.22,0,IR,4.03,1603668436
399,plouzane,48.2,81,-4.62,48.38,42,FR,10.29,1603668436
400,provideniya,35.6,74,-173.3,64.38,90,RU,8.95,1603668437
401,waw,75.6,80,28.0,7.7,96,SS,1.74,1603668437
402,aksay,46.4,81,39.87,47.26,0,RU,6.71,1603668437
403,komsomolets,47.68,96,62.07,53.75,100,KZ,12.48,1603668438
404,san juan,65.5,40,-68.54,-31.54,12,AR,10.87,1603668270
405,chapais,26.6,79,-74.85,49.78,90,CA,3.36,1603668439
406,kruisfontein,61.0,96,24.73,-34.0,100,ZA,1.01,1603668439
407,klyuchi,40.05,75,79.17,52.27,100,RU,13.2,1603668440
408,dolores,58.78,95,-57.68,-36.31,100,AR,9.51,1603668440
409,elizabethton,68.0,77,-82.21,36.35,75,US,4.36,1603668441
410,parkes,53.19,90,148.18,-33.13,100,AU,6.17,1603668442
411,roald,50.0,57,6.13,62.58,9,NO,10.29,1603668442
412,atar,89.65,14,-13.05,20.52,100,MR,7.27,1603668443
413,chauk,76.75,86,94.82,20.88,30,MM,2.15,1603668443
414,sisimiut,20.52,86,-53.67,66.94,96,GL,9.6,1603668443
415,beringovskiy,30.85,92,179.32,63.05,45,RU,2.26,1603668444
416,san isidro,64.4,77,-77.05,-12.12,20,PE,10.29,1603668445
417,panaba,78.22,90,-88.27,21.28,24,MX,9.93,1603668445
418,mikkeli,42.8,87,27.27,61.69,90,FI,8.05,1603668445
419,yeppoon,78.8,78,150.73,-23.13,75,AU,6.93,1603668446
420,chota,57.16,86,-78.65,-6.55,100,PE,3.02,1603668446
421,storslett,33.57,87,21.02,69.77,100,NO,19.8,1603668447
422,tiznit,62.38,59,-9.5,29.58,0,MA,2.26,1603668447
423,sokoni,78.96,83,39.55,-6.43,19,TZ,12.97,1603668447
424,skibbereen,42.8,93,-9.27,51.55,40,IE,9.17,1603668448
425,matara,77.02,87,80.54,5.95,100,LK,7.18,1603668448
426,sassandra,77.34,90,-6.08,4.95,53,CI,6.8,1603668449
427,parabel,27.19,98,81.48,58.7,98,RU,10.07,1603668449
428,abalak,33.21,99,68.59,58.13,100,RU,2.55,1603668310
429,sitka,41.0,86,-135.33,57.05,90,US,16.11,1603668450
430,bilma,73.49,21,12.92,18.69,0,NE,7.47,1603668450
431,winder,69.8,88,-83.72,33.99,90,US,4.65,1603668451
432,hokitika,59.34,97,170.97,-42.72,100,NZ,13.96,1603668451
433,bokoro,81.3,16,17.06,12.38,29,TD,11.05,1603668452
434,santa fe,70.0,83,-60.7,-31.63,21,AR,11.99,1603668309
435,labytnangi,12.7,95,66.42,66.66,100,RU,16.58,1603668453
436,russkaya polyana,50.47,79,31.92,49.42,100,UA,6.71,1603668453
437,fonte boa,76.06,95,-66.27,-2.5,100,BR,3.6,1603668454
438,ixtapa,89.6,66,-105.2,20.7,75,MX,6.93,1603668341
439,bilibino,18.88,94,166.44,68.05,99,RU,2.19,1603668455
440,saint-denis,50.0,87,2.33,48.92,75,FR,11.41,1603668440
441,banff,30.99,48,-115.57,51.18,9,CA,7.0,1603668456
442,harper,77.95,87,-7.72,4.38,78,LR,6.78,1603668250
443,mehamn,33.8,69,27.85,71.04,40,NO,17.22,1603668457
444,terrace,30.2,92,-128.6,54.52,90,CA,4.7,1603668386
445,grand gaube,73.0,79,57.66,-20.01,69,MU,5.99,1603668457
446,belgaum,67.59,93,74.5,15.87,33,IN,2.39,1603668272
447,mmathubudukwane,80.6,32,26.43,-24.6,75,BW,8.05,1603668458
448,roebourne,70.5,68,117.13,-20.78,100,AU,11.97,1603668459
449,noyabrsk,21.15,97,75.45,63.2,98,RU,14.36,1603668459
450,natal,78.8,83,-35.21,-5.79,40,BR,8.05,1603668459
451,gwembe,69.49,39,27.61,-16.5,0,ZM,2.26,1603668460
452,qostanay,48.2,100,63.58,53.17,90,KZ,8.95,1603668461
453,mulege,86.02,39,-111.98,26.88,0,MX,9.28,1603668461
454,vila do maio,80.6,69,-23.22,15.13,0,CV,16.11,1603668461
455,buraydah,62.6,29,43.98,26.33,0,SA,3.36,1603668462
456,marquette,32.0,89,-87.63,46.53,100,US,1.99,1603668462
457,gao,80.28,14,1.64,16.64,0,ML,11.74,1603668463
458,xai-xai,69.76,87,33.64,-25.05,0,MZ,7.63,1603668463
459,vao,72.5,82,167.48,-22.67,6,NC,13.85,1603668463
460,mongo,79.0,19,18.69,12.18,39,TD,7.25,1603668464
461,cururupu,77.25,86,-44.87,-1.83,60,BR,3.62,1603668185
462,vysokogornyy,31.75,97,139.15,50.12,98,RU,8.05,1603668465
463,boa vista,91.4,46,-60.67,2.82,0,BR,5.82,1603668465
464,kerman,39.2,38,57.08,30.28,0,IR,4.7,1603668465
465,meulaboh,75.45,84,96.13,4.14,100,ID,5.59,1603668466
466,alenquer,82.4,74,-54.74,-1.94,20,BR,1.43,1603668466
467,leshukonskoye,20.66,98,45.76,64.9,93,RU,4.74,1603668467
468,rafai,69.84,98,23.92,4.95,100,CF,3.49,1603668468
469,komarikhinskiy,32.0,97,57.12,58.1,75,RU,4.47,1603668468
470,ripoll,48.99,84,2.19,42.2,77,ES,7.61,1603668468
471,prince rupert,37.4,93,-130.32,54.32,90,CA,10.29,1603668469
472,tulum,84.2,79,-87.47,20.22,75,MX,11.41,1603668469
473,laguna,70.0,18,-121.42,38.42,1,US,18.34,1603668470
474,paka,73.4,100,103.44,4.64,40,MY,11.21,1603668221
475,hiliseu-horia,54.0,100,26.25,48.03,75,RO,3.36,1603668470
476,mikumi,70.41,78,36.98,-7.4,53,TZ,1.34,1603668471
477,eyl,76.78,68,49.82,7.98,29,SO,9.06,1603668472
478,makokou,71.01,97,12.86,0.57,100,GA,2.8,1603668472
479,fomeque,57.2,93,-73.9,4.49,40,CO,3.36,1603668473
480,abha,60.8,21,42.51,18.22,0,SA,1.5,1603668473
481,lakatoro,82.4,78,167.42,-16.1,40,VU,4.7,1603668473
482,zambezi,69.28,28,23.1,-13.54,18,ZM,1.39,1603668474
483,nurota,42.8,52,65.69,40.56,33,UZ,6.93,1603668474
484,sukhumi,65.05,27,41.02,43.0,2,GE,5.19,1603668475
485,bandarbeyla,75.18,78,50.81,9.49,1,SO,10.4,1603668294
486,west bay,82.99,83,-81.42,19.37,20,KY,12.75,1603668475
487,kununurra,86.0,70,128.73,-15.77,66,AU,8.05,1603668476
488,port hardy,44.6,59,-127.42,50.7,90,CA,6.93,1603668192
489,bontang,78.06,86,117.5,0.13,100,ID,5.66,1603668389
490,coihaique,48.2,57,-72.07,-45.58,75,CL,6.93,1603668477
491,ketchikan,37.4,93,-131.65,55.34,90,US,17.22,1603668477
492,kijang,50.0,76,129.21,35.24,0,KR,5.82,1603668478
493,touros,78.8,83,-35.46,-5.2,40,BR,8.05,1603668479
494,khilok,23.61,91,110.47,51.37,100,RU,17.49,1603668479
495,madang,77.85,86,145.8,-5.22,97,PG,4.56,1603668480
496,ondjiva,74.48,20,15.73,-17.07,8,AO,1.19,1603668481
497,loiza,80.6,88,-65.88,18.43,40,PR,4.7,1603668481
498,la rioja,50.0,81,-2.5,42.25,90,ES,4.7,1603668315
499,grindavik,41.0,86,-22.43,63.84,0,IS,10.29,1603668482
500,kalemie,72.41,77,29.19,-5.95,100,CD,9.01,1603668482
501,luxor,71.6,49,32.64,25.7,0,EG,2.24,1603668483
502,ornskoldsvik,48.2,100,18.72,63.29,100,SE,9.17,1603668483
503,burgeo,38.53,73,-57.62,47.62,0,CA,20.87,1603668484
504,zwedru,72.82,95,-8.13,6.07,30,LR,3.0,1603668484
505,jinka,63.5,91,36.65,5.65,94,ET,2.62,1603668484
506,korla,44.01,68,86.15,41.76,91,CN,1.99,1603668485
507,newton,48.0,75,-71.21,42.34,100,US,12.75,1603668486
508,vanino,41.07,69,140.25,49.09,99,RU,12.08,1603668486
509,skjervoy,37.65,78,20.97,70.03,100,NO,30.15,1603668487
510,talaya,22.71,94,152.75,61.38,100,RU,7.81,1603668487
511,basco,80.28,83,121.97,20.45,98,PH,27.67,1603668488
512,kailua,84.99,78,-157.74,21.4,40,US,9.17,1603668488
513,ostrovnoy,31.73,93,39.51,68.05,100,RU,6.96,1603668489
514,soyaux,50.0,93,0.2,45.65,0,FR,5.82,1603668489
515,los andes,63.0,99,-70.6,-32.83,4,CL,1.99,1603668489
516,mayo,51.8,87,-76.51,38.89,90,US,6.93,1603668364
517,gulariya,62.76,42,81.33,28.23,0,NP,3.18,1603668490
518,ouadda,68.23,77,22.4,8.08,74,CF,2.46,1603668491
519,rio grande,72.0,87,-52.1,-32.03,60,BR,7.0,1603668491
520,bethel,48.2,61,-73.41,41.37,90,US,3.36,1603668492
521,bad berleburg,48.99,91,8.4,51.05,99,DE,1.01,1603668492
522,bongandanga,70.75,98,21.05,1.5,83,CD,1.28,1603668493
523,sao joao da barra,72.57,85,-41.05,-21.64,100,BR,9.86,1603668493
524,west wendover,35.6,29,-114.07,40.74,75,US,18.34,1603668493
525,sao jose da coroa grande,77.29,81,-35.15,-8.9,45,BR,11.7,1603668494
526,muroto,59.0,58,134.15,33.28,40,JP,11.41,1603668494
527,sambava,70.23,83,50.17,-14.27,0,MG,9.24,1603668495
528,hvide sande,48.0,79,8.13,56.0,99,DK,15.43,1603668495
529,puerto escondido,84.2,70,-97.07,15.85,75,MX,5.82,1603668495
530,gamba,76.55,88,10.0,-2.65,100,GA,7.78,1603668197
531,guerrero negro,71.08,65,-114.06,27.98,47,MX,17.34,1603668497
532,samana,86.0,74,-69.34,19.21,20,DO,6.93,1603668497
533,inca,66.2,77,2.91,39.72,54,ES,12.75,1603668497
534,grumo appula,55.4,87,16.71,41.01,0,IT,8.05,1603668498
535,charlottetown,39.2,51,-63.13,46.24,75,CA,8.05,1603668498
536,balkanabat,59.36,34,54.37,39.51,0,TM,2.64,1603668499
537,yerofey pavlovich,29.07,96,121.97,53.97,100,RU,2.86,1603668499
538,high prairie,29.88,84,-116.49,55.43,15,CA,8.63,1603668499
539,zhezkazgan,49.19,50,67.71,47.8,100,KZ,15.08,1603668500
540,wilhelmshaven,50.0,93,8.13,53.52,66,DE,5.82,1603668500
541,luanda,77.0,83,13.23,-8.84,75,AO,6.93,1603668481
542,sandakan,77.0,94,118.12,5.84,20,MY,4.27,1603668501
543,mbandaka,72.27,96,18.26,0.05,69,CD,2.68,1603668502
544,vuktyl,21.45,97,57.31,63.86,100,RU,3.13,1603668503
545,butembo,59.16,100,29.28,0.15,100,CD,1.23,1603668503
546,malakal,78.33,70,31.66,9.53,1,SS,2.66,1603668247
547,yining,59.27,68,114.56,29.04,100,CN,0.49,1603668504
548,taltal,61.74,59,-70.48,-25.4,22,CL,6.22,1603668276
549,kieta,84.15,67,155.63,-6.22,41,PG,2.57,1603668505
550,along,62.73,86,94.77,28.17,17,IN,1.63,1603668505
551,seoul,48.2,100,126.98,37.57,1,KR,0.98,1603668261
552,amapa,74.32,91,-52.0,1.0,53,BR,3.18,1603668506
553,belmonte,77.0,88,-38.88,-15.86,75,BR,6.93,1603668507
554,lotofaga,87.8,84,-171.86,-13.98,75,WS,16.11,1603668507
555,ambon,84.2,74,128.18,-3.7,20,ID,2.24,1603668508
556,yele,72.75,28,13.59,10.73,55,CM,4.16,1603668508
557,kimbe,87.69,61,150.14,-5.55,73,PG,1.99,1603668509
558,clyde river,12.2,85,-68.59,70.47,40,CA,9.17,1603668509
559,ucluelet,46.99,65,-125.55,48.93,75,CA,9.17,1603668499
560,dingle,75.81,90,122.67,11.0,100,PH,15.82,1603668510
561,yagodnoye,22.87,96,149.67,62.55,100,RU,4.07,1603668510
562,sakakah,69.8,12,40.21,29.97,20,SA,6.93,1603668510
563,poum,77.23,75,164.02,-20.23,12,NC,15.21,1603668511
564,iwanai,48.25,78,140.51,42.97,80,JP,4.43,1603668511
565,singarayakonda,78.1,76,80.03,15.25,2,IN,2.8,1603668512
566,pokhara,63.97,26,83.98,28.23,0,NP,5.53,1603668512
567,bell ville,60.01,77,-62.69,-32.63,38,AR,8.01,1603668513
568,rayachoti,71.65,80,78.75,14.05,51,IN,2.21,1603668513
569,grenville,84.2,74,-61.62,12.12,40,GD,18.34,1603668259
570,oktyabrskiy,40.3,81,53.47,54.48,100,RU,16.93,1603668290
571,bardiyah,69.33,76,25.09,31.76,0,LY,9.75,1603668251
572,santo tomas,79.0,88,121.14,14.11,90,PH,9.17,1603668498
573,nara,57.0,76,135.8,34.69,40,JP,1.12,1603668439
574,constantine,46.4,61,6.61,36.37,0,DZ,1.12,1603668515
575,bud,50.0,70,-86.18,39.45,90,US,8.61,1603668313
576,matucana,61.57,57,-76.4,-11.85,88,PE,5.28,1603668516
577,ayan,27.45,86,138.17,56.45,0,RU,15.55,1603668260
578,millinocket,35.6,51,-68.71,45.66,1,US,4.7,1603668517
579,rockland,48.99,77,-74.05,41.17,100,US,6.17,1603668517
580,palana,36.37,82,159.97,59.12,98,RU,10.07,1603668518
581,turukhansk,2.25,91,87.98,65.82,24,RU,6.62,1603668518
582,hobyo,79.18,83,48.53,5.35,1,SO,7.65,1603668519
583,half moon bay,69.8,72,-122.43,37.46,1,US,5.82,1603668519
584,petrove,51.8,71,33.26,48.32,0,UA,4.47,1603668520
585,kincardine,48.99,76,-3.72,56.07,20,GB,13.87,1603668520
586,taoudenni,86.7,13,-3.98,22.68,23,ML,8.37,1603668521
587,manado,82.4,78,124.85,1.49,40,ID,1.74,1603668396
588,mushie,72.68,95,16.9,-3.02,98,CD,1.83,1603668521
589,belaya gora,9.99,93,146.42,68.53,10,RU,6.73,1603668522
590,togur,26.76,98,82.83,58.36,99,RU,10.18,1603668523
591,lagunas,86.68,57,-75.68,-5.23,89,PE,2.33,1603668523
